%time,field.header.seq,field.header.stamp,field.header.frame_id,field.pose.position.x,field.pose.position.y,field.pose.position.z,field.pose.orientation.x,field.pose.orientation.y,field.pose.orientation.z,field.pose.orientation.w
98851432800,493,98801429749,map,6.421848297119141,-11.012371063232422,0.0,0.0,0.0,0.2686412036418915,0.9632403254508972
99051445007,494,99001441956,map,6.427913665771484,-11.021261215209961,0.0,0.0,0.0,0.2673903703689575,0.963588297367096
99251457214,495,99201454163,map,6.455448150634766,-11.06520938873291,0.0,0.0,0.0,0.2607611417770386,0.9654033184051514
99451469421,496,99401466370,map,6.501384735107422,-11.139631271362305,0.0,0.0,0.0,0.23734615743160248,0.9714251160621643
99651481628,497,99601478577,map,6.543159484863281,-11.221198081970215,0.0,0.0,0.0,0.26129257678985596,0.9652596712112427
99851493835,498,99801490784,map,6.591342926025391,-11.301919937133789,0.0,0.0,0.0,0.296792596578598,0.954941987991333
100051506042,499,100001502991,map,6.646614074707031,-11.379424095153809,0.0,0.0,0.0,0.3001212477684021,0.9539010524749756
100251518250,500,100201515198,map,6.7012176513671875,-11.456735610961914,0.0,0.0,0.0,0.3000192642211914,0.9539331197738647
100401527405,501,100401527405,map,6.756401062011719,-11.534463882446289,0.0,0.0,0.0,0.2999030351638794,0.9539697170257568
100651542664,502,100601539612,map,6.810279846191406,-11.611566543579102,0.0,0.0,0.0,0.2999144196510315,0.9539660811424255
100851554871,503,100801551819,map,6.864410400390625,-11.688895225524902,0.0,0.0,0.0,0.2999489903450012,0.9539552330970764
101001564026,504,101001564026,map,6.920005798339844,-11.765984535217285,0.0,0.0,0.0,0.2997337579727173,0.9540228843688965
101251579285,505,101201576233,map,6.973697662353516,-11.843308448791504,0.0,0.0,0.0,0.3161475956439972,0.948710024356842
101401588440,506,101401588440,map,7.0296478271484375,-11.918130874633789,0.0,0.0,0.0,0.35329940915107727,0.9355103373527527
101651603699,507,101601600647,map,7.092983245849609,-11.987545013427734,0.0,0.0,0.0,0.3644307553768158,0.9312304854393005
101851615906,508,101801612854,map,7.157001495361328,-12.056649208068848,0.0,0.0,0.0,0.36451494693756104,0.9311975240707397
102001625061,509,102001625061,map,7.220531463623047,-12.125310897827148,0.0,0.0,0.0,0.39008811116218567,0.9207775592803955
102201637268,510,102201637268,map,7.288776397705078,-12.189664840698242,0.0,0.0,0.0,0.4024844169616699,0.9154268503189087
102451652527,511,102401649475,map,7.358058929443359,-12.25331974029541,0.0,0.0,0.0,0.4037911891937256,0.914851188659668
102651664734,512,102601661682,map,7.426357269287109,-12.315207481384277,0.0,0.0,0.0,0.43554821610450745,0.9001653790473938
102851676941,513,102801673889,map,7.498989105224609,-12.371085166931152,0.0,0.0,0.0,0.4697954058647156,0.8827753067016602
103051689148,514,103001686096,map,7.576416015625,-12.421899795532227,0.0,0.0,0.0,0.5038115382194519,0.863813579082489
103251701355,515,103201698303,map,7.658100128173828,-12.467945098876953,0.0,0.0,0.0,0.5368354916572571,0.8436869382858276
103451713562,516,103401710510,map,7.743358612060547,-12.508779525756836,0.0,0.0,0.0,0.5695603489875793,0.8219495415687561
103651725769,517,103601722717,map,7.8314361572265625,-12.54214096069336,0.0,0.0,0.0,0.6011810898780823,0.7991127967834473
103851737976,518,103801734924,map,7.920536041259766,-12.567070960998535,0.0,0.0,0.0,0.6316147446632385,0.7752824425697327
104051750183,519,104001747131,map,8.012199401855469,-12.585321426391602,0.0,0.0,0.0,0.6615265011787415,0.7499217987060547
104201759338,520,104201759338,map,8.105548858642578,-12.59706974029541,0.0,0.0,0.0,0.6909587383270264,0.7228941917419434
104451774597,521,104401771545,map,8.19924545288086,-12.601831436157227,0.0,0.0,0.0,0.718062698841095,0.6959784626960754
104651786804,522,104601783752,map,8.293712615966797,-12.596968650817871,0.0,0.0,0.0,0.7436964511871338,0.6685174703598022
104851799011,523,104801795959,map,8.388847351074219,-12.582113265991211,0.0,0.0,0.0,0.767266571521759,0.6413282752037048
105051811218,524,105001808167,map,8.4920654296875,-12.541797637939453,0.0,0.0,0.0,0.7844528555870056,0.6201884746551514
105201820374,525,105201820374,map,8.597469329833984,-12.601041793823242,0.0,0.0,0.0,0.7943945527076721,0.6074020862579346
105451835632,526,105401832581,map,8.708824157714844,-12.607003211975098,0.0,0.0,0.0,0.8097748160362244,0.5867407321929932
105651847839,527,105601844788,map,8.807247161865234,-12.615195274353027,0.0,0.0,0.0,0.8279311656951904,0.5608296990394592
105851860046,528,105801856995,map,8.89181900024414,-12.579102516174316,0.0,0.0,0.0,0.8520121574401855,0.5235219597816467
106051872253,529,106001869202,map,8.997295379638672,-12.566933631896973,0.0,0.0,0.0,0.8555701375007629,0.5176869034767151
106201881409,530,106201881409,map,9.080787658691406,-12.714537620544434,0.0,0.0,0.0,0.8593288064002991,0.5114235281944275
106451896667,531,106401893616,map,9.145729064941406,-12.771551132202148,0.0,0.0,0.0,0.8639657497406006,0.5035505294799805
106651908875,532,106601905823,map,9.207874298095703,-12.781002044677734,0.0,0.0,0.0,0.8638166785240173,0.5038062334060669
106851921082,533,106801918030,map,9.287227630615234,-12.745229721069336,0.0,0.0,0.0,0.8624351620674133,0.5061675310134888
107051933289,534,107001930237,map,9.37479019165039,-12.70021915435791,0.0,0.0,0.0,0.8622602820396423,0.5064653754234314
107251945496,535,107201942444,map,9.457603454589844,-12.652375221252441,0.0,0.0,0.0,0.8621819019317627,0.5065987706184387
107451957703,536,107401954651,map,9.537601470947266,-12.612044334411621,0.0,0.0,0.0,0.8620946407318115,0.506747305393219
107601966858,537,107601966858,map,9.622085571289062,-12.564935684204102,0.0,0.0,0.0,0.8633160591125488,0.5046635866165161
107851982117,538,107801979065,map,9.672721862792969,-12.525412559509277,0.0,0.0,0.0,0.8662037253379822,0.49969103932380676
108051994324,539,108001991272,map,9.731056213378906,-12.472688674926758,0.0,0.0,0.0,0.8777950406074524,0.4790363907814026
108252006531,540,108202003479,map,9.828239440917969,-12.426870346069336,0.0,0.0,0.0,0.8915213942527771,0.45297864079475403
108402015686,541,108402015686,map,9.90829849243164,-12.36898422241211,0.0,0.0,0.0,0.8916333913803101,0.4527580738067627
108652030945,542,108602027893,map,9.975685119628906,-12.317758560180664,0.0,0.0,0.0,0.8946207761764526,0.4468262493610382
108852043152,543,108802040100,map,10.015861511230469,-12.280048370361328,0.0,0.0,0.0,0.9044616222381592,0.42655500769615173
109052055359,544,109002052307,map,10.060047149658203,-12.268324851989746,0.0,0.0,0.0,0.9093281626701355,0.41607967019081116
109252067566,545,109202064514,map,10.107669830322266,-12.206134796142578,0.0,0.0,0.0,0.9154159426689148,0.40250924229621887
109452079773,546,109402076721,map,10.19607925415039,-12.13987922668457,0.0,0.0,0.0,0.9216756224632263,0.38796141743659973
109602088928,547,109602088928,map,10.267459869384766,-12.080451011657715,0.0,0.0,0.0,0.9220684170722961,0.38702696561813354
109852104187,548,109802101135,map,10.340259552001953,-12.011704444885254,0.0,0.0,0.0,0.9245868921279907,0.38097116351127625
110052116394,549,110002113342,map,10.403732299804688,-11.947362899780273,0.0,0.0,0.0,0.928276002407074,0.3718920052051544
110252128601,550,110202125549,map,10.47311782836914,-11.875219345092773,0.0,0.0,0.0,0.9284372925758362,0.37148916721343994
110452140808,551,110402137756,map,10.491817474365234,-11.764211654663086,0.0,0.0,0.0,0.9297635555267334,0.3681572377681732
110652153015,552,110602149963,map,10.535831451416016,-11.675199508666992,0.0,0.0,0.0,0.9320449233055115,0.3623427152633667
110852165222,553,110802162170,map,10.62045669555664,-11.624841690063477,0.0,0.0,0.0,0.939176619052887,0.34343457221984863
111052177429,554,111002174377,map,10.633689880371094,-11.484979629516602,0.0,0.0,0.0,0.9391412734985352,0.34353119134902954
111252189636,555,111202186584,map,10.64999771118164,-11.430245399475098,0.0,0.0,0.0,0.9393423795700073,0.34298089146614075
111452201843,556,111402198792,map,10.720172882080078,-11.35720157623291,0.0,0.0,0.0,0.9413307309150696,0.3374854326248169
111602210999,557,111602210999,map,10.788311004638672,-11.288153648376465,0.0,0.0,0.0,0.9416524767875671,0.33658677339553833
111852226257,558,111802223206,map,10.847919464111328,-11.216510772705078,0.0,0.0,0.0,0.9415349364280701,0.3369153141975403
112052238464,559,112002235413,map,10.910919189453125,-11.14358139038086,0.0,0.0,0.0,0.9415301084518433,0.3369289040565491
112252250671,560,112202247620,map,10.970836639404297,-11.069853782653809,0.0,0.0,0.0,0.9415286779403687,0.3369329273700714
112452262878,561,112402259827,map,11.031070709228516,-10.995085716247559,0.0,0.0,0.0,0.9415891170501709,0.3367638885974884
112652275085,562,112602272034,map,11.095287322998047,-10.921077728271484,0.0,0.0,0.0,0.9415255784988403,0.33694157004356384
112852287292,563,112802284241,map,11.154159545898438,-10.849340438842773,0.0,0.0,0.0,0.9413637518882751,0.33739328384399414
113002296448,564,113002296448,map,11.216667175292969,-10.7786283493042,0.0,0.0,0.0,0.9414514899253845,0.3371485471725464
113252311707,565,113202308655,map,11.267871856689453,-10.702645301818848,0.0,0.0,0.0,0.9412471652030945,0.33771848678588867
113452323914,566,113402320862,map,11.321334838867188,-10.627368927001953,0.0,0.0,0.0,0.9410895705223083,0.33815738558769226
113652336121,567,113602333069,map,11.393550872802734,-10.554560661315918,0.0,0.0,0.0,0.941214919090271,0.33780837059020996
113852348328,568,113802345276,map,11.459613800048828,-10.48560905456543,0.0,0.0,0.0,0.9415449500083923,0.3368873596191406
114002357483,569,114002357483,map,11.518630981445312,-10.41308879852295,0.0,0.0,0.0,0.9415015578269958,0.33700868487358093
114252372742,570,114202369690,map,11.580047607421875,-10.34309196472168,0.0,0.0,0.0,0.9416681528091431,0.33654287457466125
114452384949,571,114402381897,map,11.63922119140625,-10.270522117614746,0.0,0.0,0.0,0.9416176080703735,0.3366841971874237
114602394104,572,114602394104,map,11.702880859375,-10.196036338806152,0.0,0.0,0.0,0.9415555000305176,0.3368578553199768
114852409363,573,114802406311,map,11.765308380126953,-10.121779441833496,0.0,0.0,0.0,0.9416502714157104,0.3365929424762726
115052421570,574,115002418518,map,11.820117950439453,-10.045673370361328,0.0,0.0,0.0,0.9472237229347229,0.32057318091392517
115252433777,575,115202430725,map,11.83572006225586,-9.854523658752441,0.0,0.0,0.0,0.9486596584320068,0.3162987232208252
115452445984,576,115402442932,map,11.877681732177734,-9.768607139587402,0.0,0.0,0.0,0.9512854814529419,0.30831146240234375
115652458191,577,115602455139,map,11.936389923095703,-9.690839767456055,0.0,0.0,0.0,0.9513699412345886,0.3080507218837738
115852470398,578,115802467346,map,11.990535736083984,-9.611529350280762,0.0,0.0,0.0,0.9512525200843811,0.3084130585193634
116002479553,579,116002479553,map,12.041461944580078,-9.532821655273438,0.0,0.0,0.0,0.9511833786964417,0.30862635374069214
116252494812,580,116202491760,map,12.091926574707031,-9.399290084838867,0.0,0.0,0.0,0.9570643901824951,0.28987541794776917
116452507019,581,116402503967,map,12.138065338134766,-9.327451705932617,0.0,0.0,0.0,0.964256763458252,0.2649695575237274
116602516174,582,116602516174,map,12.18899154663086,-9.2493896484375,0.0,0.0,0.0,0.9643926620483398,0.2644745409488678
116852531433,583,116802528381,map,12.23873519897461,-9.170307159423828,0.0,0.0,0.0,0.9644584059715271,0.264234721660614
117052543640,584,117002540588,map,12.283950805664062,-9.089456558227539,0.0,0.0,0.0,0.9644525051116943,0.26425620913505554
117252555847,585,117202552795,map,12.33120346069336,-9.005666732788086,0.0,0.0,0.0,0.9644242525100708,0.26435935497283936
117452568054,586,117402565002,map,12.383102416992188,-8.926752090454102,0.0,0.0,0.0,0.9645503759384155,0.2638988792896271
117602577209,587,117602577209,map,12.430549621582031,-8.845754623413086,0.0,0.0,0.0,0.9645191431045532,0.26401281356811523
117852592468,588,117802589417,map,12.478137969970703,-8.76423454284668,0.0,0.0,0.0,0.964544415473938,0.26392048597335815
118052604675,589,118002601624,map,12.526390075683594,-8.683126449584961,0.0,0.0,0.0,0.964515745639801,0.26402536034584045
118202613831,590,118202613831,map,12.576663970947266,-8.602659225463867,0.0,0.0,0.0,0.964599609375,0.26371869444847107
118452629089,591,118402626038,map,12.625102996826172,-8.522611618041992,0.0,0.0,0.0,0.9646262526512146,0.2636213004589081
118602638245,592,118602638245,map,12.673038482666016,-8.441287994384766,0.0,0.0,0.0,0.9646092653274536,0.2636834979057312
118852653503,593,118802650452,map,12.72189712524414,-8.358102798461914,0.0,0.0,0.0,0.9645395278930664,0.26393842697143555
119052665710,594,119002662659,map,12.769718170166016,-8.270641326904297,0.0,0.0,0.0,0.9719259738922119,0.2352868914604187
119252677917,595,119202674866,map,12.8114013671875,-8.178304672241211,0.0,0.0,0.0,0.9792664647102356,0.2025763988494873
119452690125,596,119402687073,map,12.851070404052734,-8.102045059204102,0.0,0.0,0.0,0.979708194732666,0.20042921602725983
119652702332,597,119602699280,map,12.888492584228516,-8.014795303344727,0.0,0.0,0.0,0.9797080159187317,0.20042991638183594
119802711487,598,119802711487,map,12.924945831298828,-7.927986145019531,0.0,0.0,0.0,0.9797081351280212,0.20042957365512848
120002723694,599,120002723694,map,12.96213150024414,-7.840671539306641,0.0,0.0,0.0,0.9796889424324036,0.20052312314510345
120252738953,600,120202735901,map,12.998455047607422,-7.754219055175781,0.0,0.0,0.0,0.9796903729438782,0.20051634311676025
120452751160,601,120402748108,map,13.036502838134766,-7.667110443115234,0.0,0.0,0.0,0.9796946048736572,0.20049555599689484
120652763367,602,120602760315,map,13.073432922363281,-7.580114364624023,0.0,0.0,0.0,0.9796802997589111,0.20056551694869995
120802772522,603,120802772522,map,13.111503601074219,-7.491302490234375,0.0,0.0,0.0,0.9854394793510437,0.17002661526203156
121052787781,604,121002784729,map,13.145240783691406,-7.387727737426758,0.0,0.0,0.0,0.991665244102478,0.12884114682674408
121252799988,605,121202796936,map,13.16751480102539,-7.308931350708008,0.0,0.0,0.0,0.9923563599586487,0.1234050989151001
121402809143,606,121402809143,map,13.189903259277344,-7.217985153198242,0.0,0.0,0.0,0.9923753142356873,0.12325284630060196
121652824402,607,121602821350,map,13.21255874633789,-7.127410888671875,0.0,0.0,0.0,0.9924107789993286,0.12296702712774277
121852836609,608,121802833557,map,13.237323760986328,-7.028392791748047,0.0,0.0,0.0,0.9924209713935852,0.12288445234298706
122052848816,609,122002845764,map,13.264167785644531,-6.918880462646484,0.0,0.0,0.0,0.992462158203125,0.12255153059959412
122252861023,610,122202857971,map,13.291973114013672,-6.809999465942383,0.0,0.0,0.0,0.9924997687339783,0.12224651873111725
122452873230,611,122402870178,map,13.318611145019531,-6.700313568115234,0.0,0.0,0.0,0.9924812912940979,0.1223963052034378
122652885437,612,122602882385,map,13.344718933105469,-6.591249465942383,0.0,0.0,0.0,0.992475152015686,0.12244623154401779
122852897644,613,122802894592,map,13.373695373535156,-6.477458953857422,0.0,0.0,0.0,0.9924886226654053,0.12233679741621017
123052909851,614,123002906799,map,13.402606964111328,-6.366947174072266,0.0,0.0,0.0,0.992505669593811,0.12219872325658798
123252922058,615,123202919006,map,13.429988861083984,-6.257211685180664,0.0,0.0,0.0,0.9925146102905273,0.12212572246789932
123452934265,616,123402931213,map,13.45712661743164,-6.147258758544922,0.0,0.0,0.0,0.9925081729888916,0.12217848747968674
123602943420,617,123602943420,map,13.483413696289062,-6.038043975830078,0.0,0.0,0.0,0.9925012588500977,0.12223445624113083
123852958679,618,123802955627,map,13.511127471923828,-5.926761627197266,0.0,0.0,0.0,0.992534875869751,0.12196113914251328
124052970886,619,124002967834,map,13.53775405883789,-5.817234039306641,0.0,0.0,0.0,0.9882330298423767,0.1529557853937149
124252983093,620,124202980042,map,13.57305908203125,-5.710187911987305,0.0,0.0,0.0,0.9840706586837769,0.17777791619300842
124452995300,621,124402992249,map,13.615890502929688,-5.60249137878418,0.0,0.0,0.0,0.9825288653373718,0.1861102133989334
124653007507,622,124603004456,map,13.6571044921875,-5.499744415283203,0.0,0.0,0.0,0.972525954246521,0.2327943742275238
124853019714,623,124803016663,map,13.707141876220703,-5.40069580078125,0.0,0.0,0.0,0.9593756794929504,0.28213170170783997
125053031921,624,125003028870,map,13.766300201416016,-5.30858039855957,0.0,0.0,0.0,0.9435386657714844,0.33126237988471985
125253044128,625,125203041077,map,13.837890625,-5.221719741821289,0.0,0.0,0.0,0.9251359105110168,0.37963610887527466
125453056335,626,125403053284,map,13.921302795410156,-5.139566421508789,0.0,0.0,0.0,0.9169079065322876,0.39909887313842773
125653068542,627,125603065491,map,14.01071548461914,-5.058008193969727,0.0,0.0,0.0,0.9162784814834595,0.400541752576828
125853080750,628,125803077698,map,14.095340728759766,-4.978025436401367,0.0,0.0,0.0,0.9159111380577087,0.40138110518455505
126053092957,629,126003089905,map,14.180419921875,-4.8996429443359375,0.0,0.0,0.0,0.9158337116241455,0.4015577733516693
126253105164,630,126203102112,map,14.264572143554688,-4.822137832641602,0.0,0.0,0.0,0.9157794117927551,0.4016815721988678
126453117371,631,126403114319,map,14.348686218261719,-4.74345588684082,0.0,0.0,0.0,0.9156548380851746,0.4019653797149658
126653129578,632,126603126526,map,14.4332275390625,-4.665376663208008,0.0,0.0,0.0,0.915539026260376,0.40222910046577454
126853141785,633,126803138733,map,14.517566680908203,-4.5892333984375,0.0,0.0,0.0,0.9155578017234802,0.40218642354011536
127053153992,634,127003150940,map,14.598541259765625,-4.5132598876953125,0.0,0.0,0.0,0.9028269648551941,0.4300040900707245
127203163147,635,127203163147,map,14.683979034423828,-4.447092056274414,0.0,0.0,0.0,0.8813273906707764,0.4725060760974884
127453178406,636,127403175354,map,14.781436920166016,-4.381807327270508,0.0,0.0,0.0,0.876218318939209,0.48191437125205994
127603187561,637,127603187561,map,14.87796401977539,-4.321897506713867,0.0,0.0,0.0,0.8752931356430054,0.4835926592350006
127853202820,638,127803199768,map,14.97061538696289,-4.268301010131836,0.0,0.0,0.0,0.8551651835441589,0.5183556079864502
128053207397,639,128003204346,map,15.06888198852539,-4.221960067749023,0.0,0.0,0.0,0.8295537829399109,0.5584268569946289
128253219604,640,128203216553,map,15.17995834350586,-4.173486709594727,0.0,0.0,0.0,0.8222199082374573,0.5691699385643005
128453231812,641,128403228760,map,15.28802490234375,-4.134492874145508,0.0,0.0,0.0,0.8221377730369568,0.5692885518074036
128603240967,642,128603240967,map,15.394580841064453,-4.096502304077148,0.0,0.0,0.0,0.8120741844177246,0.5835541486740112
128853256226,643,128803253174,map,15.49966812133789,-4.06340217590332,0.0,0.0,0.0,0.7833611369132996,0.6215668320655823
129053268433,644,129003265381,map,15.61172103881836,-4.038080215454102,0.0,0.0,0.0,0.7499736547470093,0.6614677309989929
129203277588,645,129203277588,map,15.725231170654297,-4.026895523071289,0.0,0.0,0.0,0.7153153419494629,0.6988018155097961
129453292847,646,129403289795,map,15.838966369628906,-4.02385139465332,0.0,0.0,0.0,0.6775674223899841,0.735460638999939
129653305054,647,129603302002,map,15.9532470703125,-4.033281326293945,0.0,0.0,0.0,0.6387377977371216,0.7694244980812073
129853317261,648,129803314209,map,16.06475067138672,-4.053979873657227,0.0,0.0,0.0,0.5936872363090515,0.8046959042549133
130053329468,649,130003326416,map,16.186145782470703,-4.080511093139648,0.0,0.0,0.0,0.5536534786224365,0.8327471613883972
130253341675,650,130203338623,map,16.361072540283203,-4.15049934387207,0.0,0.0,0.0,0.5365607738494873,0.8438616991043091
130453353882,651,130403350830,map,16.484546661376953,-4.152088165283203,0.0,0.0,0.0,0.5227214694023132,0.8525035381317139
130653366089,652,130603363037,map,16.533187866210938,-4.214664459228516,0.0,0.0,0.0,0.5044437050819397,0.8634445667266846
130853378296,653,130803375244,map,16.63669204711914,-4.352144241333008,0.0,0.0,0.0,0.5049684047698975,0.8631377816200256
131053390503,654,131003387451,map,16.67081069946289,-4.452003479003906,0.0,0.0,0.0,0.4984907805919647,0.8668950200080872
131253402710,655,131203399658,map,16.737934112548828,-4.552484512329102,0.0,0.0,0.0,0.5016317367553711,0.865081250667572
131453414917,656,131403411865,map,16.841278076171875,-4.60932731628418,0.0,0.0,0.0,0.49993911385536194,0.8660605549812317
131603424072,657,131603424072,map,16.93242645263672,-4.669376373291016,0.0,0.0,0.0,0.45734015107154846,0.8892918229103088
131853439331,658,131803436279,map,17.02306365966797,-4.822338104248047,0.0,0.0,0.0,0.4474567174911499,0.8943055868148804
132053451538,659,132003448486,map,17.108348846435547,-4.859317779541016,0.0,0.0,0.0,0.42678168416023254,0.9043546915054321
132203460693,660,132203460693,map,17.202720642089844,-4.929069519042969,0.0,0.0,0.0,0.42624470591545105,0.904607892036438
132403472900,661,132403472900,map,17.290176391601562,-5.001909255981445,0.0,0.0,0.0,0.426268994808197,0.9045964479446411
132653488159,662,132603485107,map,17.377246856689453,-5.075235366821289,0.0,0.0,0.0,0.4262944459915161,0.9045844674110413
132853500366,663,132803497314,map,17.463409423828125,-5.150354385375977,0.0,0.0,0.0,0.42650118470191956,0.9044870138168335
133053512573,664,133003509521,map,17.553852081298828,-5.220941543579102,0.0,0.0,0.0,0.4268679618835449,0.9043139815330505
133203521729,665,133203521729,map,17.640392303466797,-5.295007705688477,0.0,0.0,0.0,0.4270169138908386,0.9042436480522156
133453536987,666,133403533936,map,17.72702407836914,-5.371026992797852,0.0,0.0,0.0,0.4268868863582611,0.9043050408363342
133603546143,667,133603546143,map,17.814708709716797,-5.4466705322265625,0.0,0.0,0.0,0.3982231914997101,0.9172885417938232
133803558350,668,133803558350,map,17.9193115234375,-5.55036735534668,0.0,0.0,0.0,0.36717331409454346,0.9301525354385376
134053573608,669,134003570557,map,18.01645278930664,-5.6438140869140625,0.0,0.0,0.0,0.33308789134025574,0.942895770072937
134203582764,670,134203582764,map,18.109180450439453,-5.721796035766602,0.0,0.0,0.0,0.2987283170223236,0.9543381929397583
134453598022,671,134403594971,map,18.175094604492188,-5.815408706665039,0.0,0.0,0.0,0.2505277693271637,0.9681094288825989
134653610229,672,134603607178,map,18.22881317138672,-5.914449691772461,0.0,0.0,0.0,0.23118193447589874,0.9729105234146118
134803619385,673,134803619385,map,18.277721405029297,-6.016178131103516,0.0,0.0,0.0,0.23180139064788818,0.9727631211280823
135053634644,674,135003631592,map,18.328304290771484,-6.115634918212891,0.0,0.0,0.0,0.22420331835746765,0.9745423793792725
135203643799,675,135203643799,map,18.357467651367188,-6.191598892211914,0.0,0.0,0.0,0.18825221061706543,0.98212069272995
135403656006,676,135403656006,map,18.37920379638672,-6.280433654785156,0.0,0.0,0.0,0.14464722573757172,0.9894832968711853
135653671265,677,135603668213,map,18.39126968383789,-6.365800857543945,0.0,0.0,0.0,0.10497810691595078,0.9944745302200317
135853683472,678,135803680420,map,18.399158477783203,-6.461498260498047,0.0,0.0,0.0,0.06924264132976532,0.9975998401641846
136003692627,679,136003692627,map,18.422832489013672,-6.58601188659668,0.0,0.0,0.0,0.06319734454154968,0.9980010390281677
136253707886,680,136203704834,map,18.437210083007812,-6.699237823486328,0.0,0.0,0.0,0.06284646689891815,0.9980232119560242
136453720093,681,136403717041,map,18.446205139160156,-6.80158805847168,0.0,0.0,0.0,0.035574693232774734,0.9993669986724854
136603729248,682,136603729248,map,18.413806915283203,-6.795724868774414,0.0,0.0,0.0,0.017810210585594177,0.9998413920402527
136853744507,683,136803741455,map,18.383304595947266,-6.822013854980469,0.0,0.0,0.0,-0.005639197304844856,0.999984085559845
137053756714,684,137003753662,map,18.376636505126953,-6.938385009765625,0.0,0.0,0.0,-0.02445540577173233,0.9997009038925171
137253768921,685,137203765869,map,18.370468139648438,-7.052711486816406,0.0,0.0,0.0,-0.024466369301080704,0.999700665473938
137453781128,686,137403778076,map,18.365234375,-7.166990280151367,0.0,0.0,0.0,-0.024441104382276535,0.9997012615203857
137653793335,687,137603790283,map,18.356178283691406,-7.280418395996094,0.0,0.0,0.0,-0.023805666714906693,0.999716579914093
137803802490,688,137803802490,map,18.347347259521484,-7.390447616577148,0.0,0.0,0.0,-0.05469539389014244,0.9985030889511108
138053817749,689,138003814697,map,18.311500549316406,-7.39893913269043,0.0,0.0,0.0,-0.06872159987688065,0.9976359009742737
138253829956,690,138203826904,map,18.243576049804688,-7.381021499633789,0.0,0.0,0.0,-0.07452715188264847,0.9972189664840698
138453842163,691,138403839111,map,18.178653717041016,-7.364938735961914,0.0,0.0,0.0,-0.07629212737083435,0.9970855116844177
138653854370,692,138603851318,map,18.14096450805664,-7.434789657592773,0.0,0.0,0.0,-0.0769781842827797,0.9970327615737915
138853866577,693,138803863525,map,18.117938995361328,-7.555376052856445,0.0,0.0,0.0,-0.07320421189069748,0.9973169565200806
139053878784,694,139003875732,map,18.099872589111328,-7.667625427246094,0.0,0.0,0.0,-0.07143335789442062,0.9974453449249268
139253890991,695,139203887939,map,18.080951690673828,-7.768909454345703,0.0,0.0,0.0,-0.07479985803365707,0.9971985816955566
139453903198,696,139403900146,map,18.070049285888672,-7.875284194946289,0.0,0.0,0.0,-0.07413365691900253,0.9972482919692993
139603912354,697,139603912354,map,18.054298400878906,-7.985799789428711,0.0,0.0,0.0,-0.07371804863214493,0.9972791075706482
139853927612,698,139803924561,map,18.04418182373047,-8.097526550292969,0.0,0.0,0.0,-0.07435501366853714,0.9972318410873413
140053939819,699,140003936768,map,18.028278350830078,-8.215309143066406,0.0,0.0,0.0,-0.07410465180873871,0.997250497341156
140253952026,700,140203948975,map,18.01883316040039,-8.330259323120117,0.0,0.0,0.0,-0.0748424082994461,0.9971953630447388
140453964233,701,140403961182,map,17.963001251220703,-8.439651489257812,0.0,0.0,0.0,-0.09711281210184097,0.9952733516693115
140603973389,702,140603973389,map,17.832576751708984,-8.613748550415039,0.0,0.0,0.0,-0.09621201455593109,0.9953608512878418
140853988647,703,140803985596,map,17.835079193115234,-8.716339111328125,0.0,0.0,0.0,-0.09812670946121216,0.9951739311218262
141054000854,704,141003997803,map,17.798439025878906,-8.856119155883789,0.0,0.0,0.0,-0.09834618121385574,0.9951522350311279
141254013062,705,141204010010,map,17.80105972290039,-8.97728157043457,0.0,0.0,0.0,-0.10068602859973907,0.9949182271957397
141404022217,706,141404022217,map,17.749183654785156,-9.047821044921875,0.0,0.0,0.0,-0.08807048946619034,0.9961142539978027
141654037476,707,141604034424,map,17.72832489013672,-9.165660858154297,0.0,0.0,0.0,-0.1062905490398407,0.9943351149559021
141804046631,708,141804046631,map,17.701087951660156,-9.281009674072266,0.0,0.0,0.0,-0.12374373525381088,0.9923142194747925
142054061890,709,142004058838,map,17.643577575683594,-9.401819229125977,0.0,0.0,0.0,-0.12147194892168045,0.992594838142395
142204071045,710,142204071045,map,17.668277740478516,-9.498674392700195,0.0,0.0,0.0,-0.14180564880371094,0.9898945093154907
142454086304,711,142404083252,map,17.704029083251953,-9.669559478759766,0.0,0.0,0.0,-0.15551716089248657,0.9878332018852234
142654098511,712,142604095459,map,17.658424377441406,-9.792174339294434,0.0,0.0,0.0,-0.15632306039333344,0.9877060055732727
142854110718,713,142804107666,map,17.624042510986328,-9.90029525756836,0.0,0.0,0.0,-0.15662941336631775,0.9876574277877808
143054122925,714,143004119873,map,17.587276458740234,-10.006091117858887,0.0,0.0,0.0,-0.15663035213947296,0.9876573085784912
143204132080,715,143204132080,map,17.55304718017578,-10.11441707611084,0.0,0.0,0.0,-0.1567346751689911,0.9876407384872437
143454147339,716,143404144287,map,17.502704620361328,-10.232992172241211,0.0,0.0,0.0,-0.15661293268203735,0.9876600503921509
143654159546,717,143604156494,map,17.500186920166016,-10.325918197631836,0.0,0.0,0.0,-0.15729860961437225,0.9875510931015015
143854171753,718,143804168701,map,17.434505462646484,-10.450603485107422,0.0,0.0,0.0,-0.1567871868610382,0.9876323938369751
144004180908,719,144004180908,map,17.39897918701172,-10.558271408081055,0.0,0.0,0.0,-0.15711824595928192,0.9875798225402832
144254196167,720,144204193115,map,17.361629486083984,-10.67184066772461,0.0,0.0,0.0,-0.15720418095588684,0.9875661134719849
144454208374,721,144404205322,map,17.32663345336914,-10.780138969421387,0.0,0.0,0.0,-0.1571662724018097,0.9875721335411072
144654220581,722,144604217529,map,17.290042877197266,-10.887325286865234,0.0,0.0,0.0,-0.1571580320596695,0.9875734448432922
144854232788,723,144804229736,map,17.254501342773438,-10.998197555541992,0.0,0.0,0.0,-0.1572183072566986,0.9875638484954834
145054244995,724,145004241943,map,17.22301483154297,-11.104859352111816,0.0,0.0,0.0,-0.1567871868610382,0.9876323938369751
145204254150,725,145204254150,map,17.197406768798828,-11.203055381774902,0.0,0.0,0.0,-0.12499683350324631,0.9921571612358093
145454269409,726,145404266357,map,17.164390563964844,-11.31228256225586,0.0,0.0,0.0,-0.08337502181529999,0.9965182542800903
145654281616,727,145604278564,map,17.147369384765625,-11.426584243774414,0.0,0.0,0.0,-0.08184509724378586,0.9966450333595276
145854293823,728,145804290771,map,17.12924575805664,-11.539693832397461,0.0,0.0,0.0,-0.0816359892487526,0.9966621994972229
146054306030,729,146004302979,map,17.110645294189453,-11.651922225952148,0.0,0.0,0.0,-0.08168327808380127,0.9966583251953125
146254318237,730,146204315186,map,17.092327117919922,-11.764293670654297,0.0,0.0,0.0,-0.0816371738910675,0.9966621398925781
146454330444,731,146404327393,map,17.074085235595703,-11.877286911010742,0.0,0.0,0.0,-0.08167020976543427,0.9966593980789185
146654342651,732,146604339600,map,17.05606460571289,-11.987796783447266,0.0,0.0,0.0,-0.05144866183400154,0.9986756443977356
146854354858,733,146804351807,map,17.046131134033203,-12.097593307495117,0.0,0.0,0.0,-0.0017518113600090146,0.9999984502792358
147054367065,734,147004364014,map,17.047779083251953,-12.211686134338379,0.0,0.0,0.0,0.04670752212405205,0.9989085793495178
147254379272,735,147204376221,map,17.059356689453125,-12.327457427978516,0.0,0.0,0.0,0.055242981761693954,0.9984729290008545
147454391479,736,147404388428,map,17.072452545166016,-12.440491676330566,0.0,0.0,0.0,0.05513184517621994,0.9984790682792664
147654403687,737,147604400635,map,17.086959838867188,-12.555767059326172,0.0,0.0,0.0,0.05506632849574089,0.9984827041625977
147854415894,738,147804412842,map,17.098873138427734,-12.66648006439209,0.0,0.0,0.0,0.08656049519777298,0.9962465763092041
148004425049,739,148004425049,map,17.116947174072266,-12.775583267211914,0.0,0.0,0.0,0.12817567586898804,0.991751492023468
148254440308,740,148204437256,map,17.146991729736328,-12.887569427490234,0.0,0.0,0.0,0.1297801285982132,0.9915428161621094
148404449463,741,148404449463,map,17.175128936767578,-12.996973037719727,0.0,0.0,0.0,0.13008958101272583,0.9915022253990173
148654464722,742,148604461670,map,17.203800201416016,-13.105371475219727,0.0,0.0,0.0,0.16075991094112396,0.9869935512542725
148804473877,743,148804473877,map,17.24156951904297,-13.211942672729492,0.0,0.0,0.0,0.2100122570991516,0.9776987433433533
149054489136,744,149004486084,map,17.290813446044922,-13.316763877868652,0.0,0.0,0.0,0.22865675389766693,0.9735071063041687
149254501343,745,149204498291,map,17.342552185058594,-13.419018745422363,0.0,0.0,0.0,0.22840850055217743,0.973565399646759
149454513550,746,149404510498,map,17.392345428466797,-13.522241592407227,0.0,0.0,0.0,0.22898156940937042,0.9734307527542114
149654525757,747,149604522705,map,17.441455841064453,-13.621237754821777,0.0,0.0,0.0,0.22854070365428925,0.973534345626831
